{"business_id":"id1","name":"business1","neighborhood":"","address":"bus1 1 St. NE","city":"city1","state":"b1","postal_code":"code1","latitude":51.0918130155,"longitude":-114.031674872,"stars":4.0,"review_count":24,"is_open":1,"attributes":{"BikeParking":"False","BusinessAcceptsCreditCards":"True","BusinessParking":"{'garage': False, 'street': True, 'validated': False, 'lot': False, 'valet': False}","GoodForKids":"True","HasTV":"True","NoiseLevel":"average","OutdoorSeating":"False","RestaurantsAttire":"casual","RestaurantsDelivery":"False","RestaurantsGoodForGroups":"True","RestaurantsPriceRange2":"2","RestaurantsReservations":"True","RestaurantsTakeOut":"True"},"categories":"Tours, Breweries, Pizza, Restaurants, Food, Hotels & Travel","hours":{"Monday":"8:30-17:0","Tuesday":"11:0-21:0","Wednesday":"11:0-21:0","Thursday":"11:0-21:0","Friday":"11:0-21:0","Saturday":"11:0-21:0"}}
{"business_id":"id2","name":"business2","neighborhood":"","address":"","city":"city2","state":"b2","postal_code":"code2","latitude":35.9607337,"longitude":-114.939821,"stars":4.5,"review_count":3,"is_open":0,"attributes":{"Alcohol":"none","BikeParking":"False","BusinessAcceptsCreditCards":"True","BusinessParking":"{'garage': False, 'street': True, 'validated': False, 'lot': True, 'valet': False}","Caters":"True","DogsAllowed":"True","DriveThru":"False","GoodForKids":"True","GoodForMeal":"{'dessert': False, 'latenight': False, 'lunch': False, 'dinner': False, 'breakfast': False, 'brunch': False}","HasTV":"False","OutdoorSeating":"True","RestaurantsAttire":"casual","RestaurantsDelivery":"False","RestaurantsGoodForGroups":"True","RestaurantsPriceRange2":"2","RestaurantsReservations":"False","RestaurantsTableService":"False","RestaurantsTakeOut":"True","WheelchairAccessible":"True","WiFi":"no"},"categories":"Chicken Wings, Burgers, Caterers, Street Vendors, Barbeque, Food Trucks, Food, Restaurants, Event Planning & Services","hours":{"Friday":"17:0-23:0","Saturday":"17:0-23:0","Sunday":"17:0-23:0"}}
{"business_id":"id3","name":"business3","neighborhood":"neighborhood3","address":"bus3 3 St. E","city":"cityt3","state":"b3","postal_code":"code3","latitude":45.5405031,"longitude":-73.5993003,"stars":4.0,"review_count":5,"is_open":0,"attributes":{"Alcohol":"beer_and_wine","Ambience":"{'romantic': False, 'intimate': False, 'classy': False, 'hipster': False, 'touristy': False, 'trendy': False, 'upscale': False, 'casual': False}","BikeParking":"True","BusinessAcceptsCreditCards":"False","BusinessParking":"{'garage': False, 'street': False, 'validated': False, 'lot': False, 'valet': False}","Caters":"False","GoodForKids":"True","GoodForMeal":"{'dessert': False, 'latenight': False, 'lunch': False, 'dinner': False, 'breakfast': False, 'brunch': False}","HasTV":"True","NoiseLevel":"average","OutdoorSeating":"False","RestaurantsAttire":"casual","RestaurantsDelivery":"False","RestaurantsGoodForGroups":"True","RestaurantsPriceRange2":"2","RestaurantsReservations":"True","RestaurantsTableService":"True","RestaurantsTakeOut":"False","WiFi":"free"},"categories":"Breakfast & Brunch, Restaurants, French, Sandwiches, Cafes","hours":{"Monday":"10:0-22:0","Tuesday":"10:0-22:0","Wednesday":"10:0-22:0","Thursday":"10:0-22:0","Friday":"10:0-22:0","Saturday":"10:0-22:0","Sunday":"10:0-22:0"}}
{"business_id":"id4","name":"business4","neighborhood":"","address":"bus4 4 St","city":"city4","state":"b4","postal_code":"code4","latitude":33.4499993,"longitude":-112.0769793,"stars":1.5,"review_count":8,"is_open":1,"attributes":null,"categories":"Insurance, Financial Services","hours":null}
{"business_id":"id5","name":"business5","neighborhood":"","address":"bus5 5 St. SE","city":"city5","state":"b5","postal_code":"code5","latitude":51.0355914,"longitude":-114.0273656,"stars":2.0,"review_count":4,"is_open":1,"attributes":{"BusinessAcceptsCreditCards":"True"},"categories":"Home & Garden, Nurseries & Gardening, Shopping, Local Services, Automotive, Electronics Repair","hours":{"Monday":"8:0-17:0","Tuesday":"8:0-17:0","Wednesday":"8:0-17:0","Thursday":"8:0-17:0","Friday":"8:0-17:0"}}